[
  {
    "id": "ruinas-abarebebe",
    "nome": "Ruinas do Abarebebê",
    "imagem": "ruinas-abarebebe.jpeg",
    "descricao": "Importante sítio histórico de Peruíbe, as ruínas da Igreja do Abarebebê datam do século XVI e são um dos principais marcos da colonização da região.",
    "tipo": "histórico",
    "gratuito": true,
    "localizacao": {
      "latitude": -24.271956549791028,
      "longitude": -46.94257739734345 
    }
  },
  {
    "id": "barra-do-una",
    "nome": "Barra do Una",
    "imagem": "barra-do-una.jpeg",
    "descricao": "Praia paradisíaca com encontro do rio Una com o mar, cercada por Mata Atlântica preservada.",
    "tipo": "praia",
    "gratuito": true,
    "localizacao": {
      "latitude": -24.4404391790886,
      "longitude": -47.07007841168749
    }
  },
  {
    "id": "cachoeira-do-paraiso",
    "nome": "Cachoeira do Paraíso",
    "imagem": "cachoeira-do-paraiso.jpeg",
    "descricao": "Uma das cachoeiras mais visitadas de Peruíbe, com fácil acesso e ótima para banho.",
    "tipo": "cachoeira",
    "gratuito": true,
    "localizacao": {
      "latitude": -24.3786353042863,
      "longitude": -47.07863235538776
    }
  },
  {
    "id": "cachoeira-rio-do-ouro",
    "nome": "Cachoeira Rio do Ouro",
    "imagem": "cachoeira-rio-do-ouro.jpeg",
    "descricao": "Cachoeira em meio à natureza, ideal para quem busca tranquilidade e contato com o verde.",
    "tipo": "cachoeira",
    "gratuito": true,
    "localizacao": {
      "latitude": -24.17862104031113,
      "longitude": -47.02449922598467
    }
  },
  {
    "id": "castelinho",
    "nome": "Castelinho",
    "imagem": "castelinho.jpeg",
    "descricao": "Construção histórica que remete ao passado da cidade, com arquitetura peculiar e vista privilegiada.",
    "tipo": "histórico",
    "gratuito": false,
    "localizacao": {
      "latitude": -24.35100281060154,
      "longitude": -46.9994411342772
    }
  },
  {
    "id": "estacao-ecologica-jureia",
    "nome": "Estação Ecológica Juréia-Itatins",
    "imagem": "estacao-ecologica-jureia.jpeg",
    "descricao": "Área de proteção ambiental com trilhas, cachoeiras e rica biodiversidade da Mata Atlântica.",
    "tipo": "ecológico",
    "gratuito": true,
    "localizacao": {
      "latitude": -24.35703580269406,
      "longitude": -47.01371679219006
    }
  },
  {
    "id": "ilha-guarau",
    "nome": "Ilha do Guaraú",
    "imagem": "ilha-guarau.jpeg",
    "descricao": "Ilha próxima à praia do Guaraú, ideal para passeios de barco e contato com a natureza.",
    "tipo": "ilha",
    "gratuito": false,
    "localizacao": {
      "latitude": -24.378491699376138,
      "longitude": -46.98663579747632
    }
  },
  {
    "id": "mirante-da-torre",
    "nome": "Mirante da Torre",
    "imagem": "mirante-da-torre.jpeg",
    "descricao": "Mirante com vista panorâmica de Peruíbe e do litoral, ótimo para fotos e contemplação.",
    "tipo": "mirante",
    "gratuito": true,
    "localizacao": {
      "latitude": -24.270793825882496,
      "longitude": -46.95127674880338
    }
  },
  {
    "id": "praia-costao",
    "nome": "Praia do Costão",
    "imagem": "praia-costao.jpeg",
    "descricao": "Praia com formações rochosas e trilhas, muito procurada para caminhadas e belas paisagens.",
    "tipo": "praia",
    "gratuito": true,
    "localizacao": {
      "latitude": -24.33307379922417,
      "longitude": -47.00205533454513
    }
  },
  {
    "id": "praia-desertinha",
    "nome": "Praia Desertinha",
    "imagem": "praia-desertinha.jpeg",
    "descricao": "Praia isolada e tranquila, ideal para quem busca sossego e contato com a natureza.",
    "tipo": "praia",
    "gratuito": true,
    "localizacao": {
      "latitude": -24.428859233371956,
      "longitude": -47.04730807128803
    }
  },
  {
    "id": "praia-do-cambore",
    "nome": "Praia do Camboré",
    "imagem": "praia-do-cambore.jpeg",
    "descricao": "Praia pouco movimentada, ótima para relaxar e curtir a paisagem natural.",
    "tipo": "praia",
    "gratuito": true,
    "localizacao": {
      "latitude": -24.433464578133982,
      "longitude": -47.054964401346304
    }
  },
  {
    "id": "praia-do-centro",
    "nome": "Praia do Centro",
    "imagem": "praia-do-centro.jpeg",
    "descricao": "Praia urbana, com fácil acesso, quiosques e infraestrutura para toda a família.",
    "tipo": "praia",
    "gratuito": true,
    "localizacao": {
      "latitude": -24.321424465618023,
      "longitude": -46.992458403865996
    }
  },
  {
    "id": "prainha",
    "nome": "Praínha",
    "imagem": "prainha.jpeg",
    "descricao": "Pequena praia escondida entre morros, com águas calmas e ambiente familiar.",
    "tipo": "praia",
    "gratuito": true,
    "localizacao": {
      "latitude": -24.34914924395505,
      "longitude": -47.00052034268684
    }
  }
]